{
  "airports": [
    { "id": 4486, "iata": "MAA", "icao": "VOMM", "name": "Chennai International Airport", "location": "Chennai, Tamil Nadu, India", "street_number": "", "street": "GST Rd", "city": "Chennai", "county": "", "state": "Tamil Nadu", "country_iso": "IN", "country": "India", "postal_code": "600027", "phone": "+91 44 2256 0551", "latitude": 12.994112, "longitude": 80.17087, "uct": 330, "website": "https://www.aai.aero/en/airports/chennai" }, { "id": 553, "iata": "BBI", "icao": "VEBS", "name": "Biju Patnaik International Airport", "location": "Bhubaneswar, Odisha, India", "street_number": "", "street": "Airport Road", "city": "Bhubaneswar", "county": "Khordha", "state": "Odisha", "country_iso": "IN", "country": "India", "postal_code": "751020", "phone": "+91 674 259 6305", "latitude": 20.250677, "longitude": 85.81453, "uct": 330, "website": "https://www.aai.aero/en/node/2902" }, { "id": 415, "iata": "ATQ", "icao": "VIAR", "name": "Sri Guru Ram Dass Jee International Airport", "location": "Amritsar, Punjab, India", "street_number": "", "street": "", "city": "Amritsar", "county": "Amritsar", "state": "Punjab", "country_iso": "IN", "country": "India", "postal_code": "143101", "phone": "+91 183 221 4118", "latitude": 31.70724, "longitude": 74.7989, "uct": 330, "website": "http://www.amritsarairport.com/" }, { "id": 3365, "iata": "JAI", "icao": "VIJP", "name": "Jaipur International Airport", "location": "Jaipur, Rajasthan, India", "street_number": "", "street": "Airport Road", "city": "Jaipur", "county": "Jaipur", "state": "Rajasthan", "country_iso": "IN", "country": "India", "postal_code": "302011", "phone": "+91 141 255 0623", "latitude": 26.828945, "longitude": 75.80562, "uct": 330, "website": "https://www.jaipurairport.com/" }, { "id": 5136, "iata": "NAG", "icao": "VANP", "name": "Dr. Babasaheb Ambedkar International Airport", "location": "Nagpur, Maharashtra, India", "street_number": "", "street": "", "city": "Nagpur", "county": "Nagpur", "state": "Maharashtra", "country_iso": "IN", "country": "India", "postal_code": "440005", "phone": "", "latitude": 21.09082, "longitude": 79.05482, "uct": 330, "website": "" }, { "id": 1460, "iata": "COK", "icao": "VOCI", "name": "Cochin International Airport (Nedumbassery Airport)", "location": "Kochi (Cochin), Kerala, India", "street_number": "", "street": "Airport Road", "city": "Kochi", "county": "Ernakulam", "state": "Kerala", "country_iso": "IN", "country": "India", "postal_code": "683111", "phone": "+91 484 261 0115", "latitude": 10.151783, "longitude": 76.39296, "uct": 330, "website": "http://www.cial.aero/" }, { "id": 1734, "iata": "DEL", "icao": "VIDP", "name": "Indira Gandhi International Airport", "location": "Delhi, India", "street_number": "", "street": "", "city": "New Delhi", "county": "", "state": "Delhi", "country_iso": "IN", "country": "India", "postal_code": "110037", "phone": "+91 124 337 6000", "latitude": 28.556162, "longitude": 77.09996, "uct": 330, "website": "http://www.newdelhiairport.in/" }, { "id": 7587, "iata": "TRV", "icao": "VOTV", "name": "Trivandrum International Airport", "location": "Thiruvananthapuram, Kerala, India", "street_number": "", "street": "Airport Road", "city": "Thiruvananthapuram", "county": "Thiruvananthapuram", "state": "Kerala", "country_iso": "IN", "country": "India", "postal_code": "695008", "phone": "+91 471 270 2600", "latitude": 8.48342, "longitude": 76.91982, "uct": 330, "website": "http://www.aai.aero/allAirports/thiru_general.jsp" }, { "id": 1202, "iata": "CCU", "icao": "VECC", "name": "Netaji Subhas Chandra Bose International Airport", "location": "Kolkata, West Bengal, India", "street_number": "", "street": "Jessore Road", "city": "Kolkata", "county": "North 24 Parganas", "state": "West Bengal", "country_iso": "IN", "country": "India", "postal_code": "700052", "phone": "+91 33 2511 8036", "latitude": 22.652042, "longitude": 88.44633, "uct": 330, "website": "https://www.aai.aero/en/airports/kolkata" }, { "id": 3081, "iata": "HYD", "icao": "VOHS", "name": "Rajiv Gandhi International Airport", "location": "Hyderabad, Telangana, India", "street_number": "", "street": "", "city": "Hyderabad", "county": "Ranga Reddy", "state": "Telangana", "country_iso": "IN", "country": "India", "postal_code": "500409", "phone": "+91 40 6654 6370", "latitude": 17.240263, "longitude": 78.42938, "uct": 330, "website": "http://www.hyderabad.aero/" }, { "id": 6020, "iata": "PNQ", "icao": "VAPO", "name": "Pune Airport", "location": "Pune, Maharashtra, India", "street_number": "", "street": "New Airport Road", "city": "Pune", "county": "Pune", "state": "Maharashtra", "country_iso": "IN", "country": "India", "postal_code": "411032", "phone": "+91 20 2668 3232", "latitude": 18.579344, "longitude": 73.90892, "uct": 330, "website": "http://www.puneairport.com/" }, { "id": 4223, "iata": "LKO", "icao": "VILK", "name": "Chaudhary Charan Singh International Airport", "location": "Lucknow, Uttar Pradesh, India", "street_number": "", "street": "", "city": "Lucknow", "county": "Lucknow", "state": "Uttar Pradesh", "country_iso": "IN", "country": "India", "postal_code": "226009", "phone": "+91 522 243 4914", "latitude": 26.761732, "longitude": 80.88566, "uct": 330, "website": "https://www.aai.aero/en/airports/lucknow" }, { "id": 8073, "iata": "VTZ", "icao": "VEVZ", "name": "Visakhapatnam Airport", "location": "Visakhapatnam (Vishakhapatnam), Andhra Pradesh, India", "street_number": "", "street": "", "city": "Visakhapatnam", "county": "Vishakhapatnam", "state": "Andhra Pradesh", "country_iso": "IN", "country": "India", "postal_code": "530009", "phone": "+91 89128 51109", "latitude": 17.72847, "longitude": 83.22356, "uct": 330, "website": "http://www.vizagairport.in/" }, { "id": 254, "iata": "AMD", "icao": "VAAH", "name": "Sardar Vallabhbhai Patel International Airport", "location": "Ahmedabad, Gujarat, India", "street_number": "", "street": "", "city": "Ahmedabad", "county": "Ahmedabad", "state": "Gujarat", "country_iso": "IN", "country": "India", "postal_code": "380003", "phone": "+91 79 2286 9211", "latitude": 23.073425, "longitude": 72.62657, "uct": 330, "website": "https://www.aai.aero/en/airports/ahmedabad" }, { "id": 3332, "iata": "IXC", "icao": "VICG", "name": "Chandigarh Airport", "location": "Chandigarh, India", "street_number": "", "street": "", "city": "Sahibzada Ajit Singh Nagar", "county": "", "state": "Punjab", "country_iso": "IN", "country": "India", "postal_code": "140306", "phone": "+91 172 224 2004", "latitude": 30.667767, "longitude": 76.78623, "uct": 330, "website": "http://www.airportchandigarh.com/" }, { "id": 883, "iata": "BOM", "icao": "VABB", "name": "Chhatrapati Shivaji International Airport", "location": "Mumbai, Maharashtra, India", "street_number": "", "street": "", "city": "Mumbai", "county": "Mumbai Suburban", "state": "Maharashtra", "country_iso": "IN", "country": "India", "postal_code": "400099", "phone": "+91 22 6685 1010", "latitude": 19.08956, "longitude": 72.865616, "uct": 330, "website": "https://csia.in/" }, { "id": 1729, "iata": "DED", "icao": "VIDN", "name": "Jolly Grant Airport", "location": "Dehradun, Uttarakhand, India", "street_number": "", "street": "", "city": "Dehradun", "county": "Dehradun", "state": "Uttarakhand", "country_iso": "IN", "country": "India", "postal_code": "248140", "phone": "+91 135 241 2052", "latitude": 30.194925, "longitude": 78.19205, "uct": 330, "website": "https://www.aai.aero/en/airports/dehradun" }, { "id": 1460, "iata": "COK", "icao": "VOCI", "name": "Cochin International Airport (Nedumbassery Airport)", "location": "Kochi (Cochin), Kerala, India", "street_number": "", "street": "Airport Road", "city": "Kochi", "county": "Ernakulam", "state": "Kerala", "country_iso": "IN", "country": "India", "postal_code": "683111", "phone": "+91 484 261 0115", "latitude": 10.151783, "longitude": 76.39296, "uct": 330, "website": "http://www.cial.aero/" }, { "id": 1192, "iata": "CCJ", "icao": "VOCL", "name": "Calicut International Airport", "location": "Kozhikode (Calicut), Kerala, India", "street_number": "", "street": "", "city": "Karipur", "county": "Malappuram", "state": "Kerala", "country_iso": "IN", "country": "India", "postal_code": "673647", "phone": "+91 483 271 9491", "latitude": 11.139777, "longitude": 75.950806, "uct": 330, "website": "https://www.aai.aero/en/airports/calicut" }, { "id": 3138, "iata": "IDR", "icao": "VAID", "name": "Devi Ahilyabai Holkar International Airport", "location": "Indore, Madhya Pradesh, India", "street_number": "", "street": "Depalpur Road", "city": "Indore", "county": "Indore", "state": "Madhya Pradesh", "country_iso": "IN", "country": "India", "postal_code": "452005", "phone": "+91 731 262 6326", "latitude": 22.727684, "longitude": 75.80441, "uct": 330, "website": "http://www.indoreairport.com/" }, { "id": 612, "iata": "BDQ", "icao": "VABO", "name": "Vadodara Airport (Civil Airport Harni)", "location": "Vadodara, Gujarat, India", "street_number": "", "street": "", "city": "Vadodara", "county": "Vadodara", "state": "Gujarat", "country_iso": "IN", "country": "India", "postal_code": "390022", "phone": "+91 265 248 5356", "latitude": 22.332462, "longitude": 73.21706, "uct": 330, "website": "http://aai.aero/" }, { "id": 2456, "iata": "GAU", "icao": "VEGT", "name": "Lokpriya Gopinath Bordoloi International Airport", "location": "Guwahati, Assam, India", "street_number": "", "street": "", "city": "Guwahati", "county": "", "state": "Assam", "country_iso": "IN", "country": "India", "postal_code": "781015", "phone": "+91 361 284 1909", "latitude": 26.106472, "longitude": 91.586044, "uct": 330, "website": "http://www.aai.aero/allAirports/Guwahati_GENERAL.jsp" }, { "id": 7966, "iata": "VGA", "icao": "VOBZ", "name": "Vijayawada Airport", "location": "Vijayawada, Andhra Pradesh, India", "street_number": "", "street": "", "city": "Gannavaram", "county": "Krishna", "state": "Andhra Pradesh", "country_iso": "IN", "country": "India", "postal_code": "521102", "phone": "+91 866 284 6729", "latitude": 16.523838, "longitude": 80.79142, "uct": 330, "website": "https://www.aai.aero/en/airports/vijayawada" }, { "id": 3081, "iata": "HYD", "icao": "VOHS", "name": "Rajiv Gandhi International Airport", "location": "Hyderabad, Telangana, India", "street_number": "", "street": "", "city": "Hyderabad", "county": "Ranga Reddy", "state": "Telangana", "country_iso": "IN", "country": "India", "postal_code": "500409", "phone": "+91 40 6654 6370", "latitude": 17.240263, "longitude": 78.42938, "uct": 330, "website": "http://www.hyderabad.aero/" }, { "id": 883, "iata": "BOM", "icao": "VABB", "name": "Chhatrapati Shivaji International Airport", "location": "Mumbai, Maharashtra, India", "street_number": "", "street": "", "city": "Mumbai", "county": "Mumbai Suburban", "state": "Maharashtra", "country_iso": "IN", "country": "India", "postal_code": "400099", "phone": "+91 22 6685 1010", "latitude": 19.08956, "longitude": 72.865616, "uct": 330, "website": "https://csia.in/" }, { "id": 1734, "iata": "DEL", "icao": "VIDP", "name": "Indira Gandhi International Airport", "location": "Delhi, India", "street_number": "", "street": "", "city": "New Delhi", "county": "", "state": "Delhi", "country_iso": "IN", "country": "India", "postal_code": "110037", "phone": "+91 124 337 6000", "latitude": 28.556162, "longitude": 77.09996, "uct": 330, "website": "http://www.newdelhiairport.in/" }, { "id": 254, "iata": "AMD", "icao": "VAAH", "name": "Sardar Vallabhbhai Patel International Airport", "location": "Ahmedabad, Gujarat, India", "street_number": "", "street": "", "city": "Ahmedabad", "county": "Ahmedabad", "state": "Gujarat", "country_iso": "IN", "country": "India", "postal_code": "380003", "phone": "+91 79 2286 9211", "latitude": 23.073425, "longitude": 72.62657, "uct": 330, "website": "https://www.aai.aero/en/airports/ahmedabad" }, { "id": 6264, "iata": "RAJ", "icao": "VARK", "name": "Rajkot Airport", "location": "Rajkot, Gujarat, India", "street_number": "", "street": "", "city": "Rajkot", "county": "Rajkot", "state": "Gujarat", "country_iso": "IN", "country": "India", "postal_code": "360006", "phone": "+91 281 245 1849", "latitude": 22.308792, "longitude": 70.78217, "uct": 330, "website": "" }, { "id": 3345, "iata": "IXR", "icao": "VERC", "name": "Birsa Munda Airport", "location": "Ranchi, Jharkhand, India", "street_number": "", "street": "airport road", "city": "Ranchi", "county": "Ranchi", "state": "Jharkhand", "country_iso": "IN", "country": "India", "postal_code": "834002", "phone": "+91 11 2463 2950", "latitude": 23.31725, "longitude": 85.325226, "uct": 330, "website": "https://www.aai.aero/" }, { "id": 4486, "iata": "MAA", "icao": "VOMM", "name": "Chennai International Airport", "location": "Chennai, Tamil Nadu, India", "street_number": "", "street": "GST Rd", "city": "Chennai", "county": "", "state": "Tamil Nadu", "country_iso": "IN", "country": "India", "postal_code": "600027", "phone": "+91 44 2256 0551", "latitude": 12.994112, "longitude": 80.17087, "uct": 330, "website": "https://www.aai.aero/en/airports/chennai" }, { "id": 1342, "iata": "CJB", "icao": "VOCB", "name": "Coimbatore International Airport", "location": "Coimbatore, Tamil Nadu, India", "street_number": "", "street": "", "city": "Coimbatore", "county": "Coimbatore", "state": "Tamil Nadu", "country_iso": "IN", "country": "India", "postal_code": "641014", "phone": "+91 422 259 2155", "latitude": 11.031431, "longitude": 77.043434, "uct": 330, "website": "http://www.aai.aero/" }, { "id": 5777, "iata": "PAT", "icao": "VEPT", "name": "Lok Nayak Jayaprakash Airport", "location": "Patna, Bihar, India", "street_number": "", "street": "Shaheed Pir Ali Khan Marg", "city": "Patna", "county": "Patna", "state": "Bihar", "country_iso": "IN", "country": "India", "postal_code": "800014", "phone": "+91 612 222 0683", "latitude": 25.594717, "longitude": 85.0908, "uct": 330, "website": "" }, { "id": 1202, "iata": "CCU", "icao": "VECC", "name": "Netaji Subhas Chandra Bose International Airport", "location": "Kolkata, West Bengal, India", "street_number": "", "street": "Jessore Road", "city": "Kolkata", "county": "North 24 Parganas", "state": "West Bengal", "country_iso": "IN", "country": "India", "postal_code": "700052", "phone": "+91 33 2511 8036", "latitude": 22.652042, "longitude": 88.44633, "uct": 330, "website": "https://www.aai.aero/en/airports/kolkata" }, { "id": 3365, "iata": "JAI", "icao": "VIJP", "name": "Jaipur International Airport", "location": "Jaipur, Rajasthan, India", "street_number": "", "street": "Airport Road", "city": "Jaipur", "county": "Jaipur", "state": "Rajasthan", "country_iso": "IN", "country": "India", "postal_code": "302011", "phone": "+91 141 255 0623", "latitude": 26.828945, "longitude": 75.80562, "uct": 330, "website": "https://www.jaipurairport.com/" }, { "id": 415, "iata": "ATQ", "icao": "VIAR", "name": "Sri Guru Ram Dass Jee International Airport", "location": "Amritsar, Punjab, India", "street_number": "", "street": "", "city": "Amritsar", "county": "Amritsar", "state": "Punjab", "country_iso": "IN", "country": "India", "postal_code": "143101", "phone": "+91 183 221 4118", "latitude": 31.70724, "longitude": 74.7989, "uct": 330, "website": "http://www.amritsarairport.com/" }, { "id": 3331, "iata": "IXB", "icao": "VEBD", "name": "Bagdogra Airport", "location": "Siliguri, West Bengal, India", "street_number": "", "street": "", "city": "Siliguri", "county": "Darjeeling", "state": "West Bengal", "country_iso": "IN", "country": "India", "postal_code": "734421", "phone": "+91 353 269 8431", "latitude": 26.684994, "longitude": 88.325424, "uct": 330, "website": "https://www.aai.aero/" }, { "id": 814, "iata": "BLR", "icao": "VOBL", "name": "Kempegowda International Airport", "location": "Bangalore, Karnataka, India", "street_number": "", "street": "KIAL Road", "city": "Bengaluru", "county": "", "state": "Karnataka", "country_iso": "IN", "country": "India", "postal_code": "560300", "phone": "+91 1800 425 4425", "latitude": 13.198635, "longitude": 77.7066, "uct": 330, "website": "http://www.bengaluruairport.com/" }, { "id": 7154, "iata": "SXR", "icao": "VISR", "name": "Sheikh ul Alam International Airport", "location": "Srinagar, Jammu and Kashmir, India", "street_number": "", "street": "", "city": "Srinagar", "county": "", "state": "Jammu and Kashmir", "country_iso": "IN", "country": "India", "postal_code": "190007", "phone": "+91 194 230 3311", "latitude": 34.002174, "longitude": 74.762405, "uct": 330, "website": "https://www.srinagarairport.com/" }, { "id": 8028, "iata": "VNS", "icao": "VEBN", "name": "Lal Bahadur Shastri Airport", "location": "Varanasi, Uttar Pradesh, India", "street_number": "", "street": "", "city": "Babatpur", "county": "Varanasi", "state": "Uttar Pradesh", "country_iso": "IN", "country": "India", "postal_code": "221006", "phone": "+91 542 262 3060", "latitude": 25.448769, "longitude": 82.8568, "uct": 330, "website": "http://www.aai.aero/" }, { "id": 2460, "iata": "GAY", "icao": "VEGY", "name": "Gaya Airport (Bodhgaya Airport)", "location": "Gaya, Bihar, India", "street_number": "", "street": "", "city": "Gaya", "county": "Gaya", "state": "Bihar", "country_iso": "IN", "country": "India", "postal_code": "823004", "phone": "+91 631 221 0129", "latitude": 24.748821, "longitude": 84.94373, "uct": 330, "website": "" }, { "id": 2649, "iata": "GOI", "icao": "VOGO", "name": "Goa International Airport (Dabolim Airport)", "location": "Dabolim, Goa, India", "street_number": "", "street": "", "city": "Dabolim", "county": "South Goa", "state": "Goa", "country_iso": "IN", "country": "India", "postal_code": "403801", "phone": "+91 832 254 0806", "latitude": 15.380348, "longitude": 73.83499, "uct": 330, "website": "http://www.aai.aero/allAirports/goa_generalinfo.jsp" }, { "id": 3348, "iata": "IXU", "icao": "VAAU", "name": "Aurangabad Airport (Chikkalthana Airport)", "location": "Aurangabad, Maharashtra, India", "street_number": "", "street": "", "city": "Aurangabad", "county": "Aurangabad", "state": "Maharashtra", "country_iso": "IN", "country": "India", "postal_code": "431007", "phone": "+91 240 247 1180", "latitude": 19.863972, "longitude": 75.39605, "uct": 330, "website": "" }, { "id": 2456, "iata": "GAU", "icao": "VEGT", "name": "Lokpriya Gopinath Bordoloi International Airport", "location": "Guwahati, Assam, India", "street_number": "", "street": "", "city": "Guwahati", "county": "", "state": "Assam", "country_iso": "IN", "country": "India", "postal_code": "781015", "phone": "+91 361 284 1909", "latitude": 26.106472, "longitude": 91.586044, "uct": 330, "website": "http://www.aai.aero/allAirports/Guwahati_GENERAL.jsp" }, { "id": 3331, "iata": "IXB", "icao": "VEBD", "name": "Bagdogra Airport", "location": "Siliguri, West Bengal, India", "street_number": "", "street": "", "city": "Siliguri", "county": "Darjeeling", "state": "West Bengal", "country_iso": "IN", "country": "India", "postal_code": "734421", "phone": "+91 353 269 8431", "latitude": 26.684994, "longitude": 88.325424, "uct": 330, "website": "https://www.aai.aero/" }]
}